City_ID,City,Lat,Lng,Max Temp,Humidity,Cloudiness,Wind Speed,Country,Date
0,kolonia town,6.964,158.206,28.73,79,98,7.49,FM,1734636597
1,margaret river,-33.95,115.0667,12.53,86,0,5.11,AU,1734636599
2,galich,58.3797,42.3475,-13.0,88,97,4.02,RU,1734636600
3,solikamsk,59.6196,56.7729,-13.23,98,94,1.14,RU,1734636601
4,waitangi,-43.9535,-176.5597,15.46,99,100,7.15,NZ,1734636602
5,chonchi,-42.6128,-73.8092,14.33,69,96,4.05,CL,1734636603
6,adamstown,-25.066,-130.1015,21.27,61,5,3.26,PN,1734636604
7,kavaratti,10.5669,72.642,27.31,68,64,5.3,IN,1734636605
8,port alfred,-33.5906,26.891,19.54,98,44,2.24,ZA,1734636606
9,ushuaia,-54.8,-68.3,6.81,76,75,11.32,AR,1734636497
10,hami,42.8,93.45,-8.44,59,0,2.3,CN,1734636608
11,labuan,5.2767,115.2417,27.2,94,20,1.03,MY,1734636610
12,nova sintra,14.8667,-24.7167,24.55,74,100,4.22,CV,1734636612
13,bethel,41.3712,-73.414,5.85,61,75,5.14,US,1734636613
14,grytviken,-54.2811,-36.5092,4.47,82,64,8.01,GS,1734636614
15,usinsk,65.9939,57.5281,-19.15,98,99,2.86,RU,1734636615
16,port-aux-francais,-49.35,70.2167,4.81,84,100,5.96,TF,1734636616
17,sirsa,29.5333,75.0167,10.46,31,0,2.41,IN,1734636617
18,labrador city,52.9463,-66.9114,-11.57,66,75,8.49,CA,1734636618
19,tiksi,71.6872,128.8694,-25.7,98,62,3.72,RU,1734636619
20,puerto ayora,-0.7393,-90.3518,23.64,95,66,2.24,EC,1734636611
21,flin flon,54.7682,-101.865,-22.09,77,75,0.0,CA,1734636621
22,kapa'a,22.0752,-159.319,24.71,93,0,3.09,US,1734636562
23,georgetown,5.4112,100.3354,25.96,88,20,1.54,MY,1734636362
24,albany,42.6001,-73.9662,2.23,62,100,1.34,US,1734636347
25,pekalongan,-6.8886,109.6753,26.23,87,100,2.58,ID,1734636625
26,thompson,55.7435,-97.8558,-22.91,70,20,4.12,CA,1734636626
27,manokwari,-0.8667,134.0833,26.02,83,96,2.16,ID,1734636627
28,kambarka,56.2694,54.2062,-18.95,100,95,1.56,RU,1734636628
29,keflavik,64.0049,-22.5624,2.24,87,0,10.29,IS,1734636630
30,doctor alberto oviedo mota,32.2275,-115.1697,26.62,12,0,4.46,MX,1734636631
31,lihue,21.9789,-159.3672,24.3,94,0,3.09,US,1734636632
32,"laikit, laikit ii (dimembe)",1.4792,124.9735,26.47,83,40,1.54,ID,1734636633
33,gwoza,11.1036,13.713,18.18,37,10,2.51,NG,1734636634
34,cabo san lucas,22.8909,-109.9124,27.17,57,0,0.89,MX,1734636635
35,longyearbyen,78.2186,15.6401,-10.09,79,75,6.17,SJ,1734636636
36,sorong,-0.8833,131.25,28.02,79,30,4.66,ID,1734636637
37,kununurra,-15.7667,128.7333,26.99,78,12,4.12,AU,1734636638
38,ilha de mocambique,-15.0342,40.7358,27.48,83,0,5.06,MZ,1734636639
39,betio village,1.358,172.9211,29.02,80,100,8.41,KI,1734636640
40,yura,-16.2522,-71.6797,18.29,45,20,5.66,PE,1734636641
41,yellowknife,62.456,-114.3525,-30.88,88,0,1.54,CA,1734636642
42,la passe,45.5549,-0.8967,8.91,72,95,8.92,FR,1734636643
43,lebu,-37.6167,-73.65,15.96,70,100,5.66,CL,1734636644
44,midvagur,62.0511,-7.1939,1.46,75,75,0.51,FO,1734636645
45,kingston,17.997,-76.7936,30.09,74,20,3.6,JM,1734636646
46,blackmans bay,-43.0167,147.3167,10.07,93,52,2.88,AU,1734636647
47,papatowai,-46.5619,169.4708,11.45,98,100,5.01,NZ,1734636649
48,malvan,16.0667,73.4667,23.7,75,98,3.63,IN,1734636651
49,bredasdorp,-34.5322,20.0403,17.9,80,12,2.02,ZA,1734636652
50,ziebice,50.6012,17.0406,6.86,77,100,4.0,PL,1734636653
51,ancud,-41.8697,-73.8203,13.52,94,100,7.34,CL,1734636654
52,iqaluit,63.7506,-68.5145,-29.06,68,20,7.2,CA,1734636613
53,sovetskiy,61.3614,63.5842,-22.87,100,96,1.28,RU,1734636656
54,egilsstadir,65.2653,-14.3948,-8.05,86,75,2.57,IS,1734636657
55,middelkerke,51.1558,2.8418,7.01,78,75,9.26,BE,1734636658
56,dudinka,69.4058,86.1778,-11.24,94,100,7.22,RU,1734636659
57,zuni pueblo,35.0725,-108.8506,14.4,18,96,1.13,US,1734636660
58,mariental,-24.6333,17.9667,29.02,18,0,2.63,NA,1734636661
59,labytnangi,66.6572,66.4183,-16.79,97,100,1.12,RU,1734636662
60,stanley,54.868,-1.6985,2.51,82,0,5.14,GB,1734636664
61,fort st. john,56.2499,-120.8529,-22.06,84,100,3.09,CA,1734636666
62,centerton,36.3598,-94.2852,12.83,58,0,7.2,US,1734636667
63,cova figueira,14.8905,-24.2934,18.64,71,83,3.36,CV,1734636668
64,edinburgh of the seven seas,-37.0676,-12.3116,14.05,63,98,2.21,SH,1734636669
65,isafjordur,66.0755,-23.124,-4.72,78,100,2.84,IS,1734636670
66,hermanus,-34.4187,19.2345,20.45,81,3,2.88,ZA,1734636671
67,vanimo,-2.6741,141.3028,25.68,87,78,1.7,PG,1734636672
68,vredendal,-31.6683,18.5012,16.87,80,3,6.07,ZA,1734636673
69,touros,-5.1989,-35.4608,27.5,76,21,6.13,BR,1734636674
70,antofagasta,-23.65,-70.4,19.6,70,100,3.52,CL,1734636603
71,kendari,-3.945,122.4989,25.49,82,100,2.18,ID,1734636676
72,hawaiian paradise park,19.5933,-154.9731,27.16,83,0,2.06,US,1734636678
73,san rafael,-34.6177,-68.3301,32.54,23,75,5.7,AR,1734636620
74,mudanjiang,44.5833,129.6,-14.83,95,100,1.85,CN,1734636680
75,san ignacio,17.1561,-89.0714,27.08,83,75,2.06,BZ,1734636681
76,ust-nera,64.5667,143.2,-30.56,100,98,0.95,RU,1734636683
77,cabanas,22.9758,-82.9219,26.15,74,39,4.54,CU,1734636685
78,kodiak,57.79,-152.4072,3.73,87,100,14.92,US,1734636687
79,mugia,43.1041,-9.2179,12.42,59,44,6.52,ES,1734636688
80,hun,29.1268,15.9477,13.63,40,0,2.58,LY,1734636689
81,changping,40.2186,116.2197,-2.67,37,7,2.13,CN,1734636690
82,khatra,22.9833,86.85,16.67,43,99,1.37,IN,1734636691
83,carnarvon,-24.8667,113.6333,25.44,71,1,9.48,AU,1734636692
84,sinan,34.8262,126.1086,4.17,58,100,3.29,KR,1734636694
85,almodovar,37.4959,-8.0937,10.79,96,38,2.7,PT,1734636695
86,hulan,45.9833,126.6,-16.83,90,100,2.36,CN,1734636696
87,juuka,63.2333,29.25,-3.13,96,100,4.05,FI,1734636697
88,qaqortoq,60.7167,-46.0333,-3.75,72,100,7.01,GL,1734636698
89,zeya,53.75,127.2667,-23.74,93,15,1.67,RU,1734636699
90,oum hadjer,13.2954,19.6966,23.0,21,79,4.53,TD,1734636700
91,puerto natales,-51.7236,-72.4875,8.25,76,75,9.77,CL,1734636670
92,amursk,50.2261,136.8994,-23.89,99,98,0.8,RU,1734636702
93,constantia,44.1833,28.65,5.39,80,0,4.58,RO,1734636703
94,invercargill,-46.4,168.35,13.34,89,100,4.47,NZ,1734636705
95,punta arenas,-53.15,-70.9167,10.06,50,75,16.46,CL,1734636429
96,tolanaro,-25.0319,46.9987,26.04,83,0,7.2,MG,1734636707
97,jamestown,42.097,-79.2353,-0.55,78,100,2.57,US,1734636516
98,vorgashor,67.5833,63.95,-21.58,95,88,2.08,RU,1734636709
99,quellon,-43.1167,-73.6167,12.98,74,57,6.03,CL,1734636670
100,okhotsk,59.3833,143.3,-19.99,84,42,6.33,RU,1734636711
101,sumbuya,7.6467,-11.9611,24.97,73,84,2.11,SL,1734636712
102,broome,42.2506,-75.833,0.39,74,100,3.09,US,1734636713
103,fortuna,40.5982,-124.1573,16.07,88,0,3.09,US,1734636714
104,bubaque,11.2833,-15.8333,26.32,57,75,4.36,GW,1734636715
105,repalle,16.0167,80.85,24.45,87,100,5.15,IN,1734636716
106,ghadamis,30.1337,9.5007,11.78,45,0,3.22,LY,1734636717
107,west island,-12.1568,96.8225,26.99,83,100,5.66,CC,1734636719
108,menongue,-14.6585,17.691,22.27,62,90,1.86,AO,1734636720
109,bilibino,68.0546,166.4372,-26.69,87,6,1.67,RU,1734636721
110,atafu village,-8.5421,-172.5159,27.68,81,100,8.46,TK,1734636722
111,malango,-2.9627,119.9001,19.34,96,99,1.72,ID,1734636723
112,obuase,6.206,-1.6619,24.79,41,10,1.04,GH,1734636724
113,brokopondo,4.75,-55.1667,26.62,85,49,3.42,SR,1734636725
114,hithadhoo,-0.6,73.0833,27.62,80,14,9.6,MV,1734636726
115,iskateley,67.6803,53.1512,-22.13,93,85,3.28,RU,1734636728
116,akureyri,65.6835,-18.0878,-6.04,73,100,1.03,IS,1734636729
117,usogorsk,63.4106,48.6872,-23.69,100,95,1.46,RU,1734636730
118,port mathurin,-19.6833,63.4167,25.2,73,84,7.1,MU,1734636731
119,kirakira,-10.4544,161.9205,28.17,84,99,3.59,SB,1734636732
120,saipan,15.1355,145.701,27.39,88,0,2.57,MP,1734636733
121,dryden,49.7833,-92.7503,-16.84,78,75,1.54,CA,1734636734
122,taoudenni,22.6783,-3.9836,17.7,24,0,4.94,ML,1734636735
123,sisimiut,66.9395,-53.6735,-12.67,87,100,4.65,GL,1734636736
124,kapit,2.0167,112.9333,23.29,100,100,0.47,MY,1734636737
125,ilulissat,69.2167,-51.1,-12.99,72,20,8.75,GL,1734636738
126,mossel bay,-34.1831,22.146,19.96,87,59,4.51,ZA,1734636740
127,tarhuna,32.435,13.6332,10.8,44,2,6.24,LY,1734636741
128,hastings,50.8552,0.5729,5.44,44,6,8.03,GB,1734636743
129,la plata,-34.9215,-57.9545,27.29,47,11,5.1,AR,1734636549
130,shahin dezh,36.6793,46.5669,0.5,61,1,1.94,IR,1734636745
131,malone,44.8487,-74.2949,-6.03,71,100,3.21,US,1734636746
132,kas,36.2018,29.6377,14.59,76,100,2.5,TR,1734636747
133,bardai,11.65,7.2333,15.73,29,1,4.19,NG,1734636748
134,uturoa,-16.7333,-151.4333,26.82,76,94,4.7,PF,1734636749
135,susuman,62.7833,148.1667,-25.23,98,100,1.63,RU,1734636750
136,sydney mines,46.2367,-60.2177,3.76,97,75,2.57,CA,1734636751
137,kerikeri,-35.2268,173.9474,16.62,92,26,0.89,NZ,1734636752
138,solhan,38.9634,41.0293,-3.52,75,0,2.15,TR,1734636753
139,tara,56.8944,74.371,-2.98,88,100,5.71,RU,1734636754
140,ambovombe,-25.1667,46.0833,23.8,92,96,1.87,MG,1734636755
141,trincomalee,8.5711,81.2335,25.83,87,100,4.53,LK,1734636715
142,millerovo,48.9226,40.3967,-0.83,94,100,5.16,RU,1734636757
143,axim,4.8699,-2.2405,26.78,83,6,3.03,GH,1734636758
144,port augusta,-32.5,137.7667,22.43,51,22,3.75,AU,1734636759
145,wynyard,-41.0,145.7167,14.55,94,92,4.47,AU,1734636761
146,bodaybo,57.8506,114.1933,-21.25,98,100,0.5,RU,1734636762
147,geraldton,-28.7667,114.6,17.23,82,0,3.6,AU,1734636763
148,bim son,20.0781,105.8603,15.16,73,21,1.24,VN,1734636764
149,ta`u,-14.2336,-169.5144,27.48,77,100,7.2,AS,1734636765
150,castillos,-34.1667,-53.8333,21.38,83,100,3.25,UY,1734636766
151,dahab,28.501,34.5134,20.07,58,0,3.4,EG,1734636767
152,whitehorse,60.7161,-135.0538,-18.57,70,100,9.26,CA,1734636768
153,misratah,32.3754,15.0925,14.83,48,0,5.3,LY,1734636769
154,ribeira grande,38.5167,-28.7,15.22,72,20,5.66,PT,1734636770
155,vilyuchinsk,52.9306,158.4028,-8.85,83,100,3.6,RU,1734636771
156,eastham,41.8301,-69.9739,7.21,75,100,5.36,US,1734636772
157,alamogordo,32.8995,-105.9603,19.48,28,0,1.54,US,1734636643
158,mccook,40.2019,-100.6257,14.03,19,0,13.89,US,1734636774
159,codrington,-38.2667,141.9667,16.59,50,0,3.64,AU,1734636776
160,udachny,66.4167,112.4,-19.58,91,100,2.32,RU,1734636777
161,hasaki,35.7333,140.8333,5.88,43,0,2.29,JP,1734636778
162,holualoa,19.6228,-155.9522,26.02,73,0,2.57,US,1734636779
163,kibondo,-3.5864,30.7203,15.47,95,16,0.56,TZ,1734636780
164,bailesti,44.0167,23.35,7.04,72,0,2.11,RO,1734636781
165,acarau,-2.8856,-40.12,27.92,74,6,8.65,BR,1734636782
166,nago,26.5881,127.9761,15.65,67,87,2.48,JP,1734636783
167,piti village,13.4626,144.6933,25.73,92,100,1.54,GU,1734636784
168,hammerfest,70.6634,23.6821,-11.75,79,0,1.54,NO,1734636785
169,ponta delgada,37.7333,-25.6667,15.4,77,75,4.63,PT,1734636786
170,avarua,-21.2078,-159.775,27.03,83,100,1.03,CK,1734636787
171,afaahiti,-17.75,-149.2833,25.22,83,72,4.97,PF,1734636788
172,ola,59.5833,151.2833,-17.44,83,91,4.96,RU,1734636789
173,wailua homesteads,22.0669,-159.378,23.96,91,0,3.09,US,1734636790
174,lerwick,60.1545,-1.1494,4.96,56,77,9.6,GB,1734636791
175,polyarnyy,69.1989,33.4478,-12.7,74,100,1.82,RU,1734636793
176,san juan de los morros,9.9115,-67.3538,30.48,47,86,1.52,VE,1734636794
177,antsiranana,-12.2787,49.2917,24.56,81,73,4.33,MG,1734636795
178,eaglehawk,-36.7333,144.25,18.15,39,10,1.0,AU,1734636796
179,loralai,30.3705,68.598,4.24,17,0,1.71,PK,1734636797
180,queenstown,-31.8976,26.8753,15.16,89,65,1.71,ZA,1734636798
181,mahibadhoo,3.7833,72.9667,28.38,80,29,8.78,MV,1734636799
182,yarmouth,41.7057,-70.2286,7.79,71,75,6.17,US,1734636757
183,paddhari,22.4333,70.6,17.6,23,0,3.48,IN,1734636801
184,sibolga,1.7427,98.7792,24.63,86,100,0.95,ID,1734636804
185,progreso,21.2833,-89.6667,26.19,71,97,4.4,MX,1734636805
186,praia da vitoria,38.7333,-27.0667,15.14,77,75,4.34,PT,1734636806
187,vangaindrano,-23.35,47.6,24.0,83,93,2.8,MG,1734636807
188,klyuchi,52.2667,79.1667,-7.58,77,100,6.21,RU,1734636808
189,mana,5.6592,-53.7767,27.18,78,71,4.32,GF,1734636809
190,jeddah,21.5169,39.2192,27.92,65,20,1.54,SA,1734636810
191,farah,32.5,62.5,3.18,31,0,0.85,AF,1734636811
192,serenje,-13.2325,30.2352,19.15,71,100,0.55,ZM,1734636812
193,utrik,11.2278,169.8474,27.15,84,5,10.31,MH,1734636813
194,tura,25.5198,90.2201,14.44,75,9,1.46,IN,1734636814
195,yeppoon,-23.1333,150.7333,23.66,76,100,8.76,AU,1734636554
196,fale old settlement,-9.3852,-171.2468,28.36,75,100,8.78,TK,1734636816
197,isangel,-19.55,169.2667,26.46,84,67,1.32,VU,1734636817
198,cidreira,-30.1811,-50.2056,21.16,94,100,3.79,BR,1734636819
199,remontnoye,46.5614,43.6501,-1.37,64,100,1.13,RU,1734636820
200,kidal,18.4411,1.4078,16.85,28,4,4.72,ML,1734636821
201,bakchar,57.0186,82.0711,-8.93,93,100,3.24,RU,1734636822
202,talnakh,69.4865,88.3972,-13.04,95,100,4.33,RU,1734636823
203,mount isa,-20.7333,139.5,24.87,83,100,3.09,AU,1734636825
204,guarapari,-20.6667,-40.4975,25.34,84,26,2.04,BR,1734636826
205,saldanha,-33.0117,17.9442,18.03,83,0,9.74,ZA,1734636827
206,sinabang,2.4803,96.3801,25.59,86,98,0.83,ID,1734636828
207,san ignacio de velasco,-16.3667,-60.95,29.52,54,100,3.2,BO,1734636829
208,markovo,57.3206,107.0881,-27.52,100,22,0.95,RU,1734636831
209,ghat,24.9647,10.1728,12.5,48,0,2.5,LY,1734636832
210,logan,41.7355,-111.8344,5.7,68,95,1.34,US,1734636783
211,el granada,37.5027,-122.4694,13.97,79,20,4.12,US,1734636587
212,sevastopol,44.6,33.5333,9.44,51,44,2.68,UA,1734636835
213,newman,37.3138,-121.0208,10.03,69,0,1.41,US,1734636546
214,pangody,65.85,74.4859,-19.01,100,85,3.52,RU,1734636837
215,mayya,61.7333,130.2811,-30.74,99,100,1.44,RU,1734636838
216,westport,41.1415,-73.3579,6.87,58,100,3.58,US,1734636839
217,tazovsky,67.4667,78.7,-14.2,96,100,3.04,RU,1734636840
218,nova vicosa,-17.8919,-39.3719,27.68,74,18,4.21,BR,1734636841
219,boca suno,-0.7167,-77.1333,28.26,78,74,1.94,EC,1734636842
220,christchurch,-43.5333,172.6333,15.51,95,75,4.12,NZ,1734636843
221,sydney,-33.8679,151.2073,17.98,74,40,5.14,AU,1734636618
222,tokar,18.4254,37.729,26.7,66,5,3.42,SD,1734636845
223,thinadhoo,0.5333,72.9333,27.73,80,100,9.67,MV,1734636846
224,olonkinbyen,70.9221,-8.7187,-4.07,64,100,2.7,SJ,1734636848
225,zouerate,22.7187,-12.4521,17.87,23,100,5.0,MR,1734636849
226,ohara,35.25,140.3833,5.07,49,0,3.04,JP,1734636850
227,shingu,33.7333,135.9833,1.92,80,100,2.49,JP,1734636851
228,gusinoozyorsk,51.2833,106.5,-18.17,98,13,0.6,RU,1734636852
229,santa luzia,-19.7697,-43.8514,31.5,47,40,3.09,BR,1734636776
230,ebon,4.582,168.6964,27.91,79,97,8.68,MH,1734636854
231,coquimbo,-29.9533,-71.3436,19.99,61,75,6.17,CL,1734636565
232,muzaffarabad,34.37,73.4711,6.52,23,0,2.12,PK,1734636768
233,san luis de la loma,17.2706,-100.8939,29.61,60,100,4.08,MX,1734636857
234,college,64.8569,-147.8028,-23.85,74,20,0.0,US,1734636858
235,talcahuano,-36.7167,-73.1167,20.82,49,0,10.29,CL,1734636859
236,weiser,44.251,-116.9693,5.17,84,100,1.53,US,1734636860
237,arkhangel'sk,64.5401,40.5433,-17.94,85,40,3.0,RU,1734636831
238,weno,7.4515,151.8468,28.89,77,100,7.09,FM,1734636862
239,boundiali,9.5217,-6.4869,23.59,18,0,2.16,CI,1734636863
240,saint-joseph,-21.3667,55.6167,24.21,81,97,4.36,RE,1734636864
241,buka,40.8108,69.1986,0.49,99,100,1.85,UZ,1734636865
242,lompoc,34.6391,-120.4579,26.4,21,40,3.09,US,1734636866
243,taytay,14.5678,121.1394,25.96,84,40,0.51,PH,1734636868
244,nuuk,64.1835,-51.7216,-9.66,79,75,1.03,GL,1734636869
245,yuzhno-kurilsk,44.0306,145.8556,-2.34,76,73,3.66,RU,1734636870
246,margate,51.3813,1.3862,5.94,76,7,0.89,GB,1734636871
247,puerto aysen,-45.4,-72.7,7.34,100,100,2.28,CL,1734636670
248,emporia,38.4039,-96.1817,12.11,43,0,4.12,US,1734636610
249,pandan,14.0453,124.1694,25.59,88,100,9.57,PH,1734636875
250,mar del plata,-38.0023,-57.5575,23.01,80,40,6.69,AR,1734636639
251,selfoss,63.9331,-20.9971,-1.45,94,100,6.69,IS,1734636877
252,flying fish cove,-10.4217,105.6791,24.82,94,100,2.57,CX,1734636878
253,mandan,46.8267,-100.8896,-14.01,74,0,11.83,US,1734636879
254,tralee,52.2704,-9.7026,6.7,84,92,3.07,IE,1734636881
255,wanganui,-39.9333,175.05,15.37,99,100,0.93,NZ,1734636882
256,gamba,-2.65,10.0,26.22,84,100,1.66,GA,1734636883
257,aykhal,66.0,111.5,-14.64,96,99,2.83,RU,1734636885
258,palmer,42.1584,-72.3287,4.75,52,75,6.69,US,1734636728
259,takelsa,36.7833,10.6333,15.8,48,79,3.7,TN,1734636887
260,enewetak,11.3474,162.3373,27.39,83,57,9.82,MH,1734636888
261,pascagoula,30.3658,-88.5561,15.0,67,100,3.6,US,1734636596
262,butembo,0.15,29.2833,14.99,94,73,1.1,CD,1734636891
263,khandud,36.9513,72.318,-16.07,63,14,0.66,AF,1734636894
264,nha trang,12.25,109.1833,24.0,87,100,4.68,VN,1734636896
265,badger,64.8,-147.5333,-23.9,79,20,0.0,US,1734636897
266,namibe,-15.1961,12.1522,21.55,72,33,3.44,AO,1734636898
267,turkmenbasy,40.0222,52.9552,5.43,81,100,0.0,TM,1734636899
268,kuala tungkal,-0.8167,103.4667,23.91,94,100,3.24,ID,1734636900
269,nar'yan-mar,67.6713,53.087,-22.16,93,79,3.28,RU,1734636901
270,pisco,-13.7,-76.2167,22.03,78,0,3.6,PE,1734636902
271,sechura,-5.5569,-80.8222,27.11,52,14,7.85,PE,1734636903
272,aasiaat,68.7098,-52.8699,-14.69,90,100,7.7,GL,1734636904
273,zaragoza,41.6561,-0.8773,9.33,64,20,6.17,ES,1734636745
274,al ain city,24.1917,55.7606,16.79,67,0,2.57,AE,1734636906
275,alvaraes,-3.2208,-64.8042,31.93,89,100,0.36,BR,1734636907
276,dunedin,-45.8742,170.5036,12.15,98,100,3.91,NZ,1734636908
277,bankim,6.083,11.4905,23.92,30,100,0.36,CM,1734636909
278,primero de mayo,-32.2552,-58.4228,26.01,53,100,2.31,AR,1734636910
279,as sulayyil,20.4607,45.5779,13.52,19,26,3.59,SA,1734636911
280,mumbwa,-14.9783,27.0619,20.22,83,100,1.56,ZM,1734636912
281,lamar,33.6668,-95.5836,14.94,63,0,3.6,US,1734636914
282,la ronge,55.1001,-105.2842,-20.86,77,75,2.57,CA,1734636915
283,arauca,7.0847,-70.7591,33.98,55,40,1.54,CO,1734636916
284,dalcahue,-42.3628,-73.7022,17.06,72,75,6.69,CL,1734636678
285,srikakulam,18.3,83.9,22.26,79,100,3.36,IN,1734636918
286,atar,20.5169,-13.0499,19.27,19,6,4.29,MR,1734636919
287,sarh,9.1429,18.3923,24.93,22,99,2.21,TD,1734636920
288,hamilton,39.1834,-84.5333,4.32,71,100,2.06,US,1734636921
289,port elizabeth,-33.918,25.5701,20.17,95,100,7.2,ZA,1734636922
290,sengiley,53.9622,48.7944,-14.87,95,90,2.74,RU,1734636923
291,zlatoust,55.1711,59.6508,-11.43,97,91,1.79,RU,1734636924
292,puerto armuelles,8.2833,-82.8667,28.38,73,100,3.13,PA,1734636925
293,papao,-17.75,-149.55,28.82,84,86,3.6,PF,1734636927
294,altay,47.8667,88.1167,-11.1,52,0,3.49,CN,1734636928
295,bayanhongor,46.7167,100.1167,-26.98,84,3,1.38,MN,1734636929
296,jaguaruna,-28.615,-49.0256,24.54,78,84,6.61,BR,1734636930
297,la sarre,48.8002,-79.1996,-16.67,88,98,1.92,CA,1734636932
298,gloversville,43.0528,-74.3438,0.42,72,100,4.63,US,1734636933
299,santa ana,33.7456,-117.8678,25.27,38,100,0.89,US,1734636934
300,tweed heads,-28.1817,153.547,20.66,83,75,4.12,AU,1734636935
301,haiku-pauwela,20.9219,-156.3051,25.14,76,0,3.13,US,1734636936
302,bien unido,10.1373,124.3776,26.24,86,100,3.02,PH,1734636937
303,callao,-12.0667,-77.15,22.16,73,0,2.57,PE,1734636938
304,delta,5.5,6.0,26.14,23,16,1.09,NG,1734636788
305,berezovyy,51.6667,135.7,-27.1,95,16,1.96,RU,1734636940
306,dzilam gonzalez,21.2833,-88.9333,27.82,61,75,3.23,MX,1734636941
307,khark,29.2614,50.3306,18.71,41,12,5.88,IR,1734636891
308,tocopilla,-22.092,-70.1979,20.18,70,100,3.25,CL,1734636666
309,borogontsy,62.6683,131.1683,-35.83,100,100,1.2,RU,1734636944
310,turkestan,43.3333,68.25,0.37,95,100,4.93,KZ,1734636945
311,south hedland,-20.4089,118.5983,28.96,89,100,1.54,AU,1734636947
312,sibiti,-3.6819,13.3499,21.94,96,98,0.24,CG,1734636948
313,mount gambier,-37.8333,140.7667,14.05,58,12,2.1,AU,1734636950
314,al jawf,29.5,38.75,17.1,32,88,5.28,SA,1734636951
315,juneau,58.3019,-134.4197,-3.0,74,100,2.06,US,1734636786
316,morehead city,34.7229,-76.726,12.23,78,88,4.02,US,1734636730
317,iquique,-20.2208,-70.1431,19.45,77,28,1.73,CL,1734636839
318,corry,41.9203,-79.6403,-1.66,79,100,1.76,US,1734636844
319,linwood,39.3398,-74.5752,9.43,53,0,2.57,US,1734636957
320,terrace,54.5163,-128.6035,-1.05,100,100,8.75,CA,1734636665
321,'alaqahdari dishu,30.4374,63.313,6.2,30,0,1.32,AF,1734636959
322,revda,56.801,59.9303,-15.3,99,98,1.33,RU,1734636923
323,novyy urgal,51.0736,132.5642,-33.52,99,100,1.01,RU,1734636961
324,alice springs,-23.7,133.8833,18.75,20,0,3.6,AU,1734636689
325,mahdia,35.5047,11.0622,15.63,40,20,5.4,TN,1734636964
326,at taj,24.2049,23.2857,10.54,65,0,3.66,LY,1734636965
327,cockburn town,21.4612,-71.1419,26.23,83,0,9.51,TC,1734636752
328,yingchuan,34.1628,113.4639,0.02,47,87,2.25,CN,1734636967
329,iron river,46.0927,-88.6423,-8.45,88,100,3.31,US,1734636968
330,zavetnoye,47.1194,43.8903,-2.74,57,100,1.73,RU,1734636969
331,burela de cabo,43.65,-7.4,8.64,73,96,2.65,ES,1734636970
332,vila velha,-20.3297,-40.2925,26.97,91,20,4.12,BR,1734636891
333,kolno,53.4115,21.9291,8.55,77,100,6.73,PL,1734636972
334,fort bragg,35.139,-79.006,12.91,67,100,3.6,US,1734636973
335,dinkelsbuhl,49.0694,10.3199,3.95,95,100,8.38,DE,1734636974
336,khadyzhensk,44.4256,39.5319,2.82,70,85,1.37,RU,1734636975
337,sandnessjoen,66.0217,12.6316,-0.94,64,75,5.14,NO,1734636976
338,new norfolk,-42.7826,147.0587,10.51,82,44,0.84,AU,1734636977
339,rio grande,-32.035,-52.0986,20.79,95,100,1.55,BR,1734636693
340,ouallam,14.3188,2.0866,19.2,22,13,4.6,NE,1734636979
341,gadzhiyevo,69.2551,33.3362,-13.73,79,100,1.81,RU,1734636980
342,san antonio de pale,-1.4014,5.6325,27.04,84,65,3.43,GQ,1734636981
343,alotau,-10.3069,150.4462,25.96,89,99,1.97,PG,1734636982
344,fedorovskiy,45.0972,40.9517,1.22,88,100,2.87,RU,1734636985
345,cill airne,52.05,-9.5167,5.11,89,99,2.35,IE,1734636986
346,kalymnos,36.95,26.9833,12.74,82,20,1.54,GR,1734636987
347,acapulco de juarez,16.8634,-99.8901,29.9,66,75,4.12,MX,1734636877
348,i-n-salah,27.1935,2.4607,14.78,35,0,3.31,DZ,1734636989
349,samraong,12.4526,105.5873,21.56,68,100,3.23,KH,1734636990
350,kupang,-10.1667,123.5833,24.32,100,40,1.03,ID,1734636899
351,pobe,6.9801,2.6649,23.3,35,9,2.26,BJ,1734636992
352,belmonte,-15.8631,-38.8828,27.46,75,0,3.45,BR,1734636993
353,balaklava,44.5,33.6,9.65,51,68,6.46,UA,1734636994
354,ulsteinvik,62.3432,5.8487,5.97,75,100,3.13,NO,1734636995
355,trat,12.5,102.5,19.43,72,56,3.74,TH,1734636996
356,kurchatov,51.6601,35.6521,1.95,96,100,4.92,RU,1734636997
357,warangal,18.0,79.5833,22.52,49,100,1.68,IN,1734636998
358,conception bay south,47.4999,-52.9981,7.53,90,100,4.63,CA,1734636999
359,susanville,40.4163,-120.653,6.01,77,0,0.45,US,1734637001
360,les anglais,18.3054,-74.2197,26.79,73,17,0.88,HT,1734637002
361,camarinas,43.1311,-9.1817,12.35,60,57,6.21,ES,1734637003
362,shambu,9.5667,37.1,12.44,50,16,0.33,ET,1734637004
363,souk ahras,36.2864,7.9511,13.29,52,67,2.58,DZ,1734637005
364,machali,-34.1833,-70.6667,31.91,15,63,5.41,CL,1734637006
365,kilindoni,-7.9139,39.6668,27.66,77,2,4.85,TZ,1734637007
366,warrnambool,-38.3833,142.4833,16.58,55,40,3.48,AU,1734637008
367,sanming,26.2486,117.6186,2.38,76,2,0.43,CN,1734637009
368,minas de marcona,-15.2119,-75.1103,20.02,62,100,7.88,PE,1734637010
369,nemuro,43.3236,145.575,-3.6,82,100,5.3,JP,1734636824
370,remire-montjoly,4.9167,-52.2667,25.02,100,75,1.54,GF,1734637013
371,port moresby,-9.4431,147.1797,25.64,85,100,2.19,PG,1734637014
372,porto tolle,44.9497,12.3245,11.78,84,100,4.51,IT,1734637015
373,anadyr,64.75,177.4833,-4.72,86,40,3.0,RU,1734637016
374,bucerias,20.75,-105.3333,26.99,61,0,2.57,MX,1734636760
375,nogliki,51.8333,143.1667,-21.08,82,29,4.87,RU,1734637018
376,bandarbeyla,9.4942,50.8122,23.58,63,100,10.5,SO,1734637019
377,st. john's,47.5649,-52.7093,6.75,95,100,10.29,CA,1734636823
378,okha,53.5739,142.9478,-10.95,95,100,10.08,RU,1734637021
379,akhtubinsk,48.2795,46.1722,-6.48,66,65,1.31,RU,1734637022
380,essaouira,31.5125,-9.77,17.72,82,15,2.57,MA,1734637025
381,lorengau,-2.0226,147.2712,27.88,82,100,3.91,PG,1734637026
382,grand falls-windsor,48.9332,-55.6649,0.98,100,100,2.11,CA,1734636797
383,colonia,50.9333,6.95,5.54,86,100,5.66,DE,1734636809
384,miri,4.4148,114.0089,25.08,100,40,0.0,MY,1734636979
385,pelabuhanratu,-6.9875,106.5514,25.8,87,100,3.06,ID,1734637030
386,jalostotitlan,21.2,-102.4667,23.36,32,100,4.12,MX,1734637031
387,casablanca,33.5928,-7.6192,17.12,100,40,0.51,MA,1734636888
388,arraial do cabo,-22.9661,-42.0278,26.98,73,20,7.2,BR,1734637033
389,kimbe,-5.5502,150.1429,24.68,93,98,0.89,PG,1734637035
390,san patricio,28.017,-97.5169,19.97,42,35,1.91,US,1734637036
391,petropavlovsk-kamchatsky,53.0452,158.6483,-9.67,73,0,4.0,RU,1734637037
392,la mira,18.035,-102.3266,29.23,55,100,2.56,MX,1734637038
393,sant lluis,39.8526,4.2594,16.22,72,20,4.12,ES,1734637039
394,buzias,45.6492,21.6036,1.85,74,46,0.95,RO,1734637041
395,kitimat,54.0524,-128.6534,-0.05,41,100,0.45,CA,1734636805
396,gunjur,13.2019,-16.7339,25.04,47,16,0.51,GM,1734637043
397,road town,18.4167,-64.6167,26.1,77,3,10.21,VG,1734637044
398,barra de santo antonio,-9.4047,-35.5072,26.96,78,22,4.87,BR,1734637045
399,bom jesus,-9.0744,-44.3586,36.48,26,100,2.42,BR,1734637046
400,gharghoda,22.1667,83.35,15.4,43,96,1.11,IN,1734637047
401,pyetrykaw,52.1289,28.4921,5.07,85,100,4.38,BY,1734637048
402,mutuali,-14.8706,37.0044,25.85,52,53,2.47,MZ,1734637049
403,boguchany,58.3814,97.4531,-19.06,97,100,1.6,RU,1734637050
404,liwale,-9.7667,37.9333,21.88,87,1,1.56,TZ,1734637051
405,conde,-7.2597,-34.9075,27.7,78,75,5.14,BR,1734637025
406,hauterive,46.0901,3.4459,5.19,89,100,3.9,FR,1734637053
407,pathein,16.7833,94.7333,21.25,77,90,1.88,MM,1734637055
408,mbanza-ngungu,-5.25,14.8667,20.68,97,99,0.54,CD,1734637056
409,prince rupert,54.3161,-130.3201,6.05,86,100,11.32,CA,1734637057
410,alpena,45.0617,-83.4327,-3.82,81,100,3.09,US,1734637058
411,palu,-0.8917,119.8707,25.12,89,100,1.21,ID,1734637059
412,witu,-2.3889,40.4382,25.04,89,18,2.55,KE,1734637060
413,talodi,10.6325,30.3797,27.94,26,7,3.19,SD,1734637061
414,sosnovka,56.255,51.2842,-18.93,100,86,1.19,RU,1734637062
415,floro,61.5996,5.0328,4.98,56,40,13.89,NO,1734637063
416,vadso,70.0744,29.7487,-12.91,72,20,5.14,NO,1734637064
417,poplar bluff,36.757,-90.3929,9.01,66,0,3.6,US,1734637065
418,macapa,0.0389,-51.0664,32.99,58,20,6.17,BR,1734636915
419,tsiombe,-25.3,45.4833,24.02,96,98,2.74,MG,1734637067
420,tshela,-4.9833,12.9333,23.84,98,74,0.18,CD,1734637068
421,cooper's town,26.8667,-77.5167,23.43,83,0,2.85,BS,1734637069
422,souillac,-20.5167,57.5167,26.21,73,40,4.63,MU,1734637070
423,nizhnesortymskiy,62.4397,71.7603,-12.39,96,100,2.9,RU,1734637071
424,mashhad,36.297,59.6062,-0.92,80,0,0.0,IR,1734637072
425,beauraing,50.1104,4.9555,3.6,86,10,4.24,BE,1734637075
426,taunggyi,20.7833,97.0333,13.22,91,8,0.58,MM,1734637076
427,mount pearl,47.5166,-52.7813,6.29,95,100,10.29,CA,1734637077
428,east london,-33.0153,27.9116,20.12,89,61,5.17,ZA,1734637078
429,tarfaya,27.9358,-12.9218,18.58,76,89,7.62,MA,1734637079
430,pierre,44.3683,-100.351,-7.49,62,40,16.98,US,1734637080
431,maragogi,-9.0122,-35.2225,27.1,76,37,4.72,BR,1734637081
432,vila franca do campo,37.7167,-25.4333,15.23,77,75,3.67,PT,1734637082
433,sitka,57.0531,-135.33,7.94,53,75,9.26,US,1734636793
434,baoqing,46.3317,132.2111,-18.96,89,6,2.22,CN,1734637084
435,pacasmayo,-7.4006,-79.5714,22.45,69,10,7.2,PE,1734636958
436,port douglas,-16.4833,145.4667,25.56,91,100,1.02,AU,1734637088
437,kourou,5.1552,-52.6478,27.37,76,85,3.31,GF,1734637089
438,qui nhon,13.7667,109.2333,21.76,82,100,5.7,VN,1734637090
439,amahai,-3.3333,128.9167,26.32,84,100,2.12,ID,1734637091
440,talara,-4.5772,-81.2719,26.42,53,0,8.75,PE,1734637092
441,qazvin,36.2797,50.0049,-1.21,55,0,2.06,IR,1734637093
442,lingig,8.0389,126.4125,23.94,91,79,0.74,PH,1734637094
443,kharp,66.8014,65.8081,-16.65,98,100,0.58,RU,1734637095
444,reshetylivka,49.565,34.0782,4.22,95,99,5.06,UA,1734637096
445,isla vista,34.4133,-119.861,24.14,42,100,1.34,US,1734637097
446,manta,-0.95,-80.7333,27.88,69,40,6.17,EC,1734637098
447,san antonio oeste,-40.7319,-64.9477,28.15,21,100,9.87,AR,1734637099
448,delice,39.9537,34.0259,1.76,83,71,0.9,TR,1734637100
449,kerch,45.3583,36.4758,8.93,80,11,7.24,UA,1734637101
450,fort-shevchenko,44.5086,50.263,0.61,61,36,6.15,KZ,1734637102
451,rio de janeiro,-22.9028,-43.2075,26.0,80,20,7.72,BR,1734637042
452,tindouf,27.6711,-8.1474,14.25,23,0,1.03,DZ,1734637105
453,aripuana,-9.1667,-60.6333,31.19,62,100,1.61,BR,1734637106
454,meadow lakes,61.6247,-149.6011,-3.19,62,99,0.89,US,1734637107
455,port lincoln,-34.7333,135.8667,17.16,85,0,4.54,AU,1734637108
456,campo verde,-20.4167,-54.0667,30.76,48,69,6.26,BR,1734637109
457,pitimbu,-7.4706,-34.8086,27.08,77,28,4.76,BR,1734637110
458,porto novo,6.4965,2.6036,27.9,47,27,2.17,BJ,1734637111
459,kalavad,22.2167,70.3833,17.41,29,0,3.74,IN,1734637112
460,sarmiento,-45.5882,-69.07,9.6,74,99,3.52,AR,1734637113
461,mananjary,-21.2167,48.3333,24.9,78,6,4.77,MG,1734637114
462,abomey,7.1829,1.9912,26.13,19,6,0.41,BJ,1734637115
463,amarante do maranhao,-5.5667,-46.7422,25.84,84,99,1.7,BR,1734637116
464,hotan,37.0997,79.9269,-5.53,66,1,1.23,CN,1734637117
465,santa cruz,-17.8,-63.1667,26.7,83,75,6.69,BO,1734636988
466,ushibukamachi,32.1906,130.0228,7.28,67,77,2.49,JP,1734637119
467,huedin,46.8667,23.05,4.64,76,76,1.57,RO,1734637121
468,noosa heads,-26.3833,153.15,22.81,61,96,6.1,AU,1734637122
469,savanna-la-mar,18.219,-78.1332,28.85,66,28,2.57,JM,1734637123
470,puerto madero,14.7208,-92.4215,31.11,58,40,3.09,MX,1734637125
471,los zacatones,22.95,-102.05,16.02,57,97,6.27,MX,1734637126
472,mokshan,53.4365,44.6132,-18.32,96,98,2.82,RU,1734637127
473,luderitz,-26.6481,15.1594,17.7,76,0,9.48,NA,1734637032
474,walvis bay,-22.9575,14.5053,17.53,77,0,4.12,NA,1734637129
475,traverse city,44.7631,-85.6206,-1.96,60,100,3.09,US,1734636852
476,fada,7.25,4.0667,23.15,28,8,0.85,NG,1734637131
477,copiapo,-27.3667,-70.3333,26.26,31,0,4.41,CL,1734637132
478,maluso,6.543,121.8753,26.96,87,100,2.63,PH,1734637133
479,talakan,50.3167,130.3667,-31.76,100,89,0.04,RU,1734637134
480,sao jose da coroa grande,-8.8978,-35.1478,27.14,78,36,4.95,BR,1734637135
481,kharhial,20.2833,82.7667,19.88,72,100,1.27,IN,1734637136
482,lazaro cardenas,17.9583,-102.2,29.3,56,100,2.67,MX,1734637137
483,luwuk,-0.9516,122.7875,23.37,92,100,0.86,ID,1734637139
484,ormara,25.2088,64.6357,20.33,36,4,3.05,PK,1734637140
485,slonim,53.0867,25.3219,6.44,75,100,6.16,BY,1734636888
486,lisala,2.15,21.5167,22.27,88,53,0.53,CD,1734637142
487,tommot,58.9564,126.2925,-15.35,94,100,4.27,RU,1734637143
488,greymouth,-42.4667,171.2,17.95,65,68,2.82,NZ,1734637145
489,yaren,-0.5472,166.916,27.9,73,100,8.68,NR,1734637146
490,kruisfontein,-34.0033,24.7314,16.79,93,3,2.52,ZA,1734637147
491,crane,31.3974,-102.3501,17.7,25,0,3.12,US,1734637148
492,portoferraio,42.8115,10.3146,15.29,84,79,6.44,IT,1734637149
493,mopti,14.6667,-4.0,21.23,18,5,4.56,ML,1734637150
494,harstad,68.799,16.5293,-3.8,89,100,13.86,NO,1734637151
495,katima mulilo,-17.5,24.2667,21.26,90,97,2.42,NA,1734637152
496,muroto-misakicho,33.2833,134.15,7.79,53,53,1.13,JP,1734637153
497,tual,-5.6667,132.75,28.4,79,100,6.67,ID,1734637155
498,jijel,36.8205,5.7667,15.97,59,75,2.06,DZ,1734637156
499,anar darah,32.7587,61.654,5.32,25,0,2.09,AF,1734637052
500,suwayr,30.1171,40.3893,13.13,22,98,6.54,SA,1734637158
501,piranhas,-16.4269,-51.8222,29.86,66,87,1.45,BR,1734637159
502,chernyshevsk,52.5243,117.0174,-29.88,100,23,0.64,RU,1734637161
503,socorro,31.6546,-106.3033,17.26,24,0,2.06,US,1734637162
504,simenqian,27.4872,110.8861,2.5,70,5,0.26,CN,1734637163
505,alamos,27.0167,-108.9333,31.98,14,1,2.1,MX,1734637164
506,miandrivazo,-19.5167,45.4667,28.24,76,1,3.59,MG,1734637165
507,kiruna,67.8557,20.2251,-14.49,85,100,4.63,SE,1734637166
508,ungheni,47.2042,27.7958,1.36,100,100,6.17,MD,1734637167
509,timoteo,-19.5825,-42.6444,30.48,85,25,0.72,BR,1734637168
510,orangeburg,33.4918,-80.8557,16.16,82,100,5.14,US,1734637169
511,sikonge,-5.6333,32.7667,17.94,95,92,1.63,TZ,1734637170
512,winnemucca,40.973,-117.7357,7.03,57,0,4.12,US,1734637171
513,ballito,-29.539,31.2144,21.08,88,100,1.03,ZA,1734637172
514,coron,11.9986,120.2043,24.89,86,59,2.33,PH,1734637173
515,bryne,58.7354,5.6477,4.97,80,75,15.95,NO,1734637175
516,smara,26.7384,-11.6719,19.04,12,97,3.48,EH,1734637176
517,madras,13.0878,80.2785,25.99,95,75,3.09,IN,1734637084
518,pasvalys,56.0594,24.4036,7.74,93,100,7.63,LT,1734637178
519,babol,36.5513,52.679,6.91,85,0,1.39,IR,1734637179
520,kulhudhuffushi,6.6221,73.07,28.11,74,100,2.0,MV,1734637180
521,kill devil hills,36.0307,-75.676,9.99,75,100,7.2,US,1734636901
522,ar ruways,24.1103,52.7306,18.61,64,93,5.68,AE,1734637182
523,xai-xai,-25.0519,33.6442,25.09,88,94,4.89,MZ,1734637183
524,nanjing,32.0617,118.7778,2.19,69,0,0.62,CN,1734636955
525,nova xavantina,-14.6667,-52.35,28.38,78,100,2.13,BR,1734637185
526,waingapu,-9.6567,120.2641,26.4,85,100,2.88,ID,1734637187
527,saliste,45.7963,23.8868,-4.64,100,4,1.03,RO,1734637188
528,hadibu,12.65,54.0333,22.07,64,70,5.22,YE,1734637189
529,chu,43.5983,73.7614,-0.62,82,100,1.22,KZ,1734637190
530,sann,26.0418,68.1378,15.17,24,21,3.23,PK,1734637191
531,inirida,3.8653,-67.9239,29.28,77,90,1.39,CO,1734637193
532,kalispell,48.1958,-114.3129,4.16,76,0,0.89,US,1734637194
533,nioki,-2.7167,17.6833,24.08,84,94,0.48,CD,1734637195
534,kone,-21.0595,164.8658,26.7,79,12,0.88,NC,1734637196
535,taksimo,56.3444,114.8794,-21.37,91,48,0.76,RU,1734637197
536,bambang,16.3833,121.1,19.97,98,100,1.67,PH,1734637198
537,cottage grove,44.8277,-92.9438,-3.84,87,100,5.14,US,1734636903
538,smirnykh,49.75,142.8333,-19.33,95,35,1.99,RU,1734637200
539,vernon,50.2581,-119.2691,1.53,96,100,0.51,CA,1734637201
540,napanee,44.2501,-76.9494,-1.05,57,98,2.56,CA,1734637202
541,plettenberg bay,-34.0527,23.3716,19.32,90,5,1.55,ZA,1734637021
542,swakopmund,-22.6833,14.5333,16.1,84,0,2.68,NA,1734637204
543,ixtapa,20.7,-105.2,26.57,61,0,2.57,MX,1734637205
544,leh,34.1667,77.5833,-11.79,31,0,1.2,IN,1734637173
545,crucecita,-28.95,-58.9833,26.8,60,73,4.23,AR,1734637208
546,mirpur bhtoro,24.7286,68.2603,16.51,22,100,4.04,PK,1734637209
547,inarajan village,13.2736,144.7484,25.78,92,91,5.33,GU,1734637210
548,robore,-18.3333,-59.75,32.05,58,40,7.72,BO,1734637211
549,skelleftea,64.7507,20.9528,-8.8,100,100,5.14,SE,1734637212
550,goroka,-6.0834,145.3873,16.38,98,100,0.66,PG,1734637213
551,borodino,55.9106,94.8983,-22.87,97,92,1.03,RU,1734637214
552,mirny,62.5353,113.9611,-14.9,86,100,2.9,RU,1734637215
553,sorsk,54.0033,90.2467,-16.86,80,100,2.09,RU,1734637216
554,jamui,24.9167,86.2167,15.74,48,90,1.42,IN,1734637217
555,moron,-34.6534,-58.6198,28.92,50,40,8.94,AR,1734637218
556,altai,46.3722,96.2583,-16.58,48,79,0.7,MN,1734637219
557,de aar,-30.6497,24.0123,23.01,28,0,5.35,ZA,1734637220
558,slyudyanka,51.6594,103.7061,-14.52,88,10,2.27,RU,1734637221
559,puerto cabezas,14.0351,-83.3888,28.98,84,75,4.12,NI,1734636945
560,sao joao da barra,-21.6403,-41.0511,29.05,85,4,4.54,BR,1734637223
561,happy valley-goose bay,53.3168,-60.3315,-6.83,79,75,3.6,CA,1734637155
562,puerto del rosario,28.5004,-13.8627,18.86,68,20,4.12,ES,1734637227
563,ishigaki,24.3448,124.1572,17.07,88,100,5.14,JP,1734637228
564,valdivia,-39.8142,-73.2459,16.05,91,100,1.98,CL,1734637129
565,yurimaguas,-5.9,-76.0833,32.09,62,20,3.09,PE,1734637231
566,bamboo flat,11.7,92.7167,27.05,74,40,2.06,IN,1734637232
567,patong,7.8961,98.2966,26.08,83,87,6.11,TH,1734637233
568,pudozh,61.8099,36.5345,-7.28,93,100,4.62,RU,1734637234
569,severo-yeniseyskiy,60.3725,93.0408,-20.85,96,99,1.81,RU,1734637236
570,taltal,-25.4,-70.4833,19.51,67,32,2.27,CL,1734637237
571,kemin,42.7846,75.6892,-3.26,77,100,1.26,KG,1734637238
